{
  "type": "FeatureCollection",
    "name": "Central Asian Cities",
    "crs": { "type": "name", "properties": { "name": "urn:ogc:def:crs:OGC:1.3:CRS84" } },
    "features": [
    { "type": "Feature", "properties": { "Name": "Termez", "description": null }, "geometry": { "type": "Point", "coordinates": [ 67.308623599999905, 37.2610694 ] } },
    { "type": "Feature", "properties": { "Name": "Samarkand", "description": null }, "geometry": { "type": "Point", "coordinates": [ 66.9749731, 39.627012 ] } },
    { "type": "Feature", "properties": { "Name": "Merv", "description": null }, "geometry": { "type": "Point", "coordinates": [ 62.1747186, 37.664426 ] } },
    { "type": "Feature", "properties": { "Name": "Bukhara", "description": null }, "geometry": { "type": "Point", "coordinates": [ 64.4555769, 39.7680827 ] } },
    { "type": "Feature", "properties": { "Name": "Urgench", "description": null }, "geometry": { "type": "Point", "coordinates": [ 60.6248891, 41.5345323 ] } },
    { "type": "Feature", "properties": { "Name": "Tashkent", "description": null }, "geometry": { "type": "Point", "coordinates": [ 69.2400734, 41.2994958 ] } },
    { "type": "Feature", "properties": { "Name": "Neyshabur", "description": null }, "geometry": { "type": "Point", "coordinates": [ 58.7960915, 36.2140865 ] } },
    { "type": "Feature", "properties": { "Name": "Balkh", "description": null }, "geometry": { "type": "Point", "coordinates": [ 66.8975372, 36.7550603 ] } },
    { "type": "Feature", "properties": { "Name": "Gorgan", "description": null }, "geometry": { "type": "Point", "coordinates": [ 54.4393363, 36.8456427 ] } },
    { "type": "Feature", "properties": { "Name": "Shahr-e-Rey", "description": null }, "geometry": { "type": "Point", "coordinates": [ 51.4624642, 35.5770451 ] } },
    { "type": "Feature", "properties": { "Name": "Ghazni", "description": null }, "geometry": { "type": "Point", "coordinates": [ 68.4173972, 33.5450587 ] } },
    { "type": "Feature", "properties": { "Name": "Balasagun (Burana Tower)", "description": "FormerÂ Kara-Khanid capital." }, "geometry": { "type": "Point", "coordinates": [ 75.2504298, 42.7463898 ] } },
    { "type": "Feature", "properties": { "Name": "Herat", "description": null }, "geometry": { "type": "Point", "coordinates": [ 62.2040287, 34.352865 ] } },
    { "type": "Feature", "properties": { "Name": "Otrar", "description": null }, "geometry": { "type": "Point", "coordinates": [ 69.6218286000001, 42.3441031 ] } },
    { "type": "Feature", "properties": { "Name": "Sarkel", "description": null
    }, "geometry": { "type": "Point", "coordinates": [ 42.273056, 47.705 ] } },
    { "type": "Feature", "properties": { "Name": "Itil", "description": null },
    "geometry": { "type": "Point", "coordinates": [ 47.825833, 46.013889  ] } }
  ]
}
